{
"type": "FeatureCollection",
"name": "west-java-label",
"crs": { "type": "name", "properties": { "name": "urn:ogc:def:crs:OGC:1.3:CRS84" } },
"features": [
{ "type": "Feature", "properties": { "name": "KABUPATEN BOGOR" }, "geometry": { "type": "Point", "coordinates": [ 106.63057984419622, -6.562995172923927 ] } },
{ "type": "Feature", "properties": { "name": "KABUPATEN SUKABUMI" }, "geometry": { "type": "Point", "coordinates": [ 106.707616086331484, -7.076200665121958 ] } },
{ "type": "Feature", "properties": { "name": "KABUPATEN CIANJUR" }, "geometry": { "type": "Point", "coordinates": [ 107.157786238541476, -7.133687372028278 ] } },
{ "type": "Feature", "properties": { "name": "KABUPATEN BANDUNG" }, "geometry": { "type": "Point", "coordinates": [ 107.610808931321316, -7.099986058679105 ] } },
{ "type": "Feature", "properties": { "name": "KABUPATEN GARUT" }, "geometry": { "type": "Point", "coordinates": [ 107.788847338151044, -7.359568538023741 ] } },
{ "type": "Feature", "properties": { "name": "KABUPATEN TASIKMALAYA" }, "geometry": { "type": "Point", "coordinates": [ 108.141234475471194, -7.496884462008543 ] } },
{ "type": "Feature", "properties": { "name": "KABUPATEN CIAMIS" }, "geometry": { "type": "Point", "coordinates": [ 108.368249213829444, -7.210093992033073 ] } },
{ "type": "Feature", "properties": { "name": "KABUPATEN KUNINGAN" }, "geometry": { "type": "Point", "coordinates": [ 108.560304648014736, -7.004268518556357 ] } },
{ "type": "Feature", "properties": { "name": "KABUPATEN CIREBON" }, "geometry": { "type": "Point", "coordinates": [ 108.454566655705165, -6.685760953173395 ] } },
{ "type": "Feature", "properties": { "name": "KABUPATEN MAJALENGKA" }, "geometry": { "type": "Point", "coordinates": [ 108.257768844144252, -6.815780219544608 ] } },
{ "type": "Feature", "properties": { "name": "KABUPATEN SUMEDANG" }, "geometry": { "type": "Point", "coordinates": [ 107.980801886944647, -6.825082569972023 ] } },
{ "type": "Feature", "properties": { "name": "KABUPATEN INDRAMAYU" }, "geometry": { "type": "Point", "coordinates": [ 108.168756159620088, -6.448658582655876 ] } },
{ "type": "Feature", "properties": { "name": "KABUPATEN SUBANG" }, "geometry": { "type": "Point", "coordinates": [ 107.732228810621564, -6.484209233116781 ] } },
{ "type": "Feature", "properties": { "name": "KABUPATEN PURWAKARTA" }, "geometry": { "type": "Point", "coordinates": [ 107.432238581369674, -6.594989650874602 ] } },
{ "type": "Feature", "properties": { "name": "KABUPATEN KARAWANG" }, "geometry": { "type": "Point", "coordinates": [ 107.353874356202581, -6.251881199054079 ] } },
{ "type": "Feature", "properties": { "name": "KABUPATEN BEKASI" }, "geometry": { "type": "Point", "coordinates": [ 107.120451253851371, -6.215307204708246 ] } },
{ "type": "Feature", "properties": { "name": "KABUPATEN BANDUNG BARAT" }, "geometry": { "type": "Point", "coordinates": [ 107.386183706730208, -6.972368641176462 ] } },
{ "type": "Feature", "properties": { "name": "KABUPATEN PANGANDARAN" }, "geometry": { "type": "Point", "coordinates": [ 108.51863096088168, -7.63590672340556 ] } },
{ "type": "Feature", "properties": { "name": "KOTA BOGOR" }, "geometry": { "type": "Point", "coordinates": [ 106.799512056899204, -6.59339164010709 ] } },
{ "type": "Feature", "properties": { "name": "KOTA SUKABUMI" }, "geometry": { "type": "Point", "coordinates": [ 106.924248359939881, -6.939875066874209 ] } },
{ "type": "Feature", "properties": { "name": "KOTA BANDUNG" }, "geometry": { "type": "Point", "coordinates": [ 107.636011313093206, -6.950415726588446 ] } },
{ "type": "Feature", "properties": { "name": "KOTA CIREBON" }, "geometry": { "type": "Point", "coordinates": [ 108.553593288629855, -6.741850735915071 ] } },
{ "type": "Feature", "properties": { "name": "KOTA BEKASI" }, "geometry": { "type": "Point", "coordinates": [ 106.975700197604553, -6.280199529202329 ] } },
{ "type": "Feature", "properties": { "name": "KOTA DEPOK" }, "geometry": { "type": "Point", "coordinates": [ 106.816788842322765, -6.396135734428924 ] } },
{ "type": "Feature", "properties": { "name": "KOTA CIMAHI" }, "geometry": { "type": "Point", "coordinates": [ 107.543658194870233, -6.886632896319453 ] } },
{ "type": "Feature", "properties": { "name": "KOTA TASIKMALAYA" }, "geometry": { "type": "Point", "coordinates": [ 108.219472362977413, -7.360298964146697 ] } },
{ "type": "Feature", "properties": { "name": "KOTA BANJAR" }, "geometry": { "type": "Point", "coordinates": [ 108.566503703429078, -7.376330136465005 ] } }
]
}
